{
  "cities": [
    {"id": "sao-paulo", "name": "São Paulo", "state": "SP", "lat": -23.5505, "lng": -46.6333, "neighbors": ["campinas", "santos", "rio-de-janeiro"]},
    {"id": "rio-de-janeiro", "name": "Rio de Janeiro", "state": "RJ", "lat": -22.9068, "lng": -43.1729, "neighbors": ["sao-paulo", "belo-horizonte", "vitoria"]},
    {"id": "brasilia", "name": "Brasília", "state": "DF", "lat": -15.8267, "lng": -47.9218, "neighbors": ["goiania", "belo-horizonte"]},
    {"id": "salvador", "name": "Salvador", "state": "BA", "lat": -12.9714, "lng": -38.5014, "neighbors": ["aracaju", "recife", "feira-de-santana"]},
    {"id": "fortaleza", "name": "Fortaleza", "state": "CE", "lat": -3.7172, "lng": -38.5433, "neighbors": ["natal", "teresina"]},
    {"id": "belo-horizonte", "name": "Belo Horizonte", "state": "MG", "lat": -19.9167, "lng": -43.9345, "neighbors": ["rio-de-janeiro", "brasilia", "vitoria", "sao-paulo"]},
    {"id": "manaus", "name": "Manaus", "state": "AM", "lat": -3.1190, "lng": -60.0217, "neighbors": ["porto-velho", "boa-vista", "belem"]},
    {"id": "curitiba", "name": "Curitiba", "state": "PR", "lat": -25.4284, "lng": -49.2733, "neighbors": ["sao-paulo", "florianopolis", "porto-alegre"]},
    {"id": "recife", "name": "Recife", "state": "PE", "lat": -8.0476, "lng": -34.8770, "neighbors": ["salvador", "natal", "maceio", "joao-pessoa"]},
    {"id": "porto-alegre", "name": "Porto Alegre", "state": "RS", "lat": -30.0346, "lng": -51.2177, "neighbors": ["curitiba", "florianopolis"]},
    {"id": "belem", "name": "Belém", "state": "PA", "lat": -1.4558, "lng": -48.5039, "neighbors": ["manaus", "sao-luis", "palmas"]},
    {"id": "goiania", "name": "Goiânia", "state": "GO", "lat": -16.6869, "lng": -49.2648, "neighbors": ["brasilia", "campo-grande", "cuiaba"]},
    {"id": "campinas", "name": "Campinas", "state": "SP", "lat": -22.9099, "lng": -47.0626, "neighbors": ["sao-paulo", "santos"]},
    {"id": "sao-luis", "name": "São Luís", "state": "MA", "lat": -2.5307, "lng": -44.3068, "neighbors": ["belem", "teresina", "fortaleza"]},
    {"id": "natal", "name": "Natal", "state": "RN", "lat": -5.7945, "lng": -35.2110, "neighbors": ["fortaleza", "recife", "joao-pessoa"]},
    {"id": "campo-grande", "name": "Campo Grande", "state": "MS", "lat": -20.4697, "lng": -54.6201, "neighbors": ["goiania", "cuiaba", "curitiba"]},
    {"id": "teresina", "name": "Teresina", "state": "PI", "lat": -5.0949, "lng": -42.8042, "neighbors": ["fortaleza", "sao-luis", "salvador"]},
    {"id": "joao-pessoa", "name": "João Pessoa", "state": "PB", "lat": -7.1195, "lng": -34.8450, "neighbors": ["natal", "recife"]},
    {"id": "maceio", "name": "Maceió", "state": "AL", "lat": -9.6658, "lng": -35.7350, "neighbors": ["recife", "aracaju"]},
    {"id": "cuiaba", "name": "Cuiabá", "state": "MT", "lat": -15.6014, "lng": -56.0979, "neighbors": ["goiania", "campo-grande", "porto-velho"]},
    {"id": "aracaju", "name": "Aracaju", "state": "SE", "lat": -10.9472, "lng": -37.0731, "neighbors": ["salvador", "maceio"]},
    {"id": "florianopolis", "name": "Florianópolis", "state": "SC", "lat": -27.5954, "lng": -48.5480, "neighbors": ["curitiba", "porto-alegre"]},
    {"id": "vitoria", "name": "Vitória", "state": "ES", "lat": -20.3155, "lng": -40.3128, "neighbors": ["rio-de-janeiro", "belo-horizonte"]},
    {"id": "porto-velho", "name": "Porto Velho", "state": "RO", "lat": -8.7619, "lng": -63.9039, "neighbors": ["manaus", "cuiaba", "rio-branco"]},
    {"id": "santos", "name": "Santos", "state": "SP", "lat": -23.9618, "lng": -46.3322, "neighbors": ["sao-paulo", "campinas"]},
    {"id": "feira-de-santana", "name": "Feira de Santana", "state": "BA", "lat": -12.2664, "lng": -38.9663, "neighbors": ["salvador", "aracaju"]},
    {"id": "rio-branco", "name": "Rio Branco", "state": "AC", "lat": -9.9747, "lng": -67.8243, "neighbors": ["porto-velho"]},
    {"id": "macapa", "name": "Macapá", "state": "AP", "lat": 0.0389, "lng": -51.0664, "neighbors": ["belem"]},
    {"id": "boa-vista", "name": "Boa Vista", "state": "RR", "lat": 2.8235, "lng": -60.6758, "neighbors": ["manaus"]},
    {"id": "palmas", "name": "Palmas", "state": "TO", "lat": -10.1689, "lng": -48.3317, "neighbors": ["belem", "brasilia", "goiania"]}
  ]
}
